{
  "features": [
    {
      "geometry": {
        "coordinates": [34.0063743, -6.8207822],
        "type": "Point"
      },
      "properties": {
        "address_line1": "Chellah",
        "address_line2": "Deuxième Rocade, 10116 Rabat, Morocco",
        "city": "Rabat",
        "country": "Morocco",
        "country_code": "ma",
        "district": "Mabella",
        "formatted": "Chellah, Deuxième Rocade, 10116 Rabat, Morocco",
        "lat": 34.0063743,
        "lon": -6.8207822,
        "municipality": "El Youssoufia اليوسفية",
        "name": "Chellah",
        "opening_hours": "Mo-Su 08:30-18:30",
        "postcode": "10116",
        "state": "Rabat-Salé-Kénitra",
        "state_district": "Rabat Prefecture",
        "street": "Deuxième Rocade"
      },
      "type": "Feature"
    },
    {
      "geometry": {
        "coordinates": [34.00703295, -6.821599389375178],
        "type": "Point"
      },
      "properties": {
        "address_line1": "Nécropole du Chellah",
        "address_line2": "Avenue Moussa Ibn Noussair, 10010 Rabat, Morocco",
        "city": "Rabat",
        "country": "Morocco",
        "country_code": "ma",
        "formatted": "Nécropole du Chellah, Avenue Moussa Ibn Noussair, 10010 Rabat, Morocco",
        "lat": 34.00703295,
        "lon": -6.821599389375178,
        "municipality": "El Youssoufia اليوسفية",
        "name": "Nécropole du Chellah",
        "postcode": "10010",
        "state": "Rabat-Salé-Kénitra",
        "state_district": "Rabat Prefecture",
        "street": "Avenue Moussa Ibn Noussair"
      },
      "type": "Feature"
    },
    {
      "geometry": {
        "coordinates": [34.0241489, -6.822795697965116],
        "type": "Point"
      },
      "properties": {
        "address_line1": "Hassan Tower",
        "address_line2": "Avenue Mohamed Al Yazidi, 10042 Rabat, Morocco",
        "city": "Rabat",
        "country": "Morocco",
        "country_code": "ma",
        "formatted": "Hassan Tower, Avenue Mohamed Al Yazidi, 10042 Rabat, Morocco",
        "lat": 34.0241489,
        "lon": -6.822795697965116,
        "municipality": "Hassan حسان",
        "name": "Tour Hassan صومعة حسان",
        "postcode": "10042",
        "state": "Rabat-Salé-Kénitra",
        "state_district": "Rabat Prefecture",
        "street": "Avenue Mohamed Al Yazidi"
      },
      "type": "Feature"
    }
  ]
}
